timestamp,flight_id,aircraft_reg,altitude_ft,airspeed_kts,vertical_speed_fpm,pitch_deg,roll_deg,heading_deg,engine1_n1_pct,engine2_n1_pct,engine1_egt_c,engine2_egt_c,flap_position,gear_position,groundspeed_kts,latitude,longitude,phase
2022-01-13 04:51:00,FDM6522,G-ABCD,0,0,0,1.2,0.1,182,22.1,22.3,410,412,0,1,0,51.4775,-0.4614,PRE_FLIGHT
2022-01-13 04:51:10,FDM6522,G-ABCD,0,0,0,1.2,0.1,182,45.3,45.1,520,518,0,1,0,51.4775,-0.4614,PRE_FLIGHT
2022-01-13 04:51:20,FDM6522,G-ABCD,0,2,0,1.3,0.2,182,68.2,68.4,610,608,5,1,2,51.4775,-0.4614,TAXI
2022-01-13 04:51:30,FDM6522,G-ABCD,0,5,0,1.3,0.2,183,70.1,70.3,615,614,5,1,5,51.4776,-0.4615,TAXI
2022-01-13 04:52:00,FDM6522,G-ABCD,0,15,0,2.1,0.3,185,82.4,82.1,640,638,10,1,15,51.4778,-0.4620,TAKEOFF_ROLL
2022-01-13 04:52:10,FDM6522,G-ABCD,0,80,200,5.2,1.1,185,92.3,92.5,680,678,10,1,80,51.4780,-0.4630,TAKEOFF_ROLL
2022-01-13 04:52:20,FDM6522,G-ABCD,0,130,800,8.4,1.5,185,95.1,95.2,710,708,10,1,130,51.4785,-0.4645,TAKEOFF_ROLL
2022-01-13 04:52:30,FDM6522,G-ABCD,150,145,1200,10.2,2.1,186,92.0,92.2,700,698,10,0,145,51.4792,-0.4660,INITIAL_CLIMB
2022-01-13 04:52:40,FDM6522,G-ABCD,400,155,1500,9.8,2.3,186,91.5,91.7,695,693,5,0,155,51.4800,-0.4680,INITIAL_CLIMB
2022-01-13 04:53:00,FDM6522,G-ABCD,900,165,1800,8.1,3.2,187,90.2,90.4,688,686,5,0,165,51.4820,-0.4720,CLIMB
2022-01-13 04:54:00,FDM6522,G-ABCD,3200,210,2000,6.2,2.8,188,88.4,88.6,675,673,0,0,210,51.4900,-0.4900,CLIMB
2022-01-13 04:56:00,FDM6522,G-ABCD,8500,250,1800,4.1,1.2,190,85.2,85.4,660,658,0,0,250,51.5100,-0.5300,CLIMB
2022-01-13 05:00:00,FDM6522,G-ABCD,18000,320,1200,2.8,0.8,192,82.1,82.3,645,643,0,0,320,51.5600,-0.6200,CLIMB
2022-01-13 05:10:00,FDM6522,G-ABCD,32000,420,400,1.2,0.5,195,78.4,78.6,628,626,0,0,420,51.7000,-0.9000,CRUISE
2022-01-13 05:30:00,FDM6522,G-ABCD,37000,450,0,0.8,0.3,198,76.2,76.4,615,613,0,0,450,52.1000,-1.5000,CRUISE
2022-01-13 06:00:00,FDM6522,G-ABCD,37000,448,10,0.9,0.4,200,76.0,76.2,614,612,0,0,448,52.8000,-2.5000,CRUISE
2022-01-13 06:30:00,FDM6522,G-ABCD,37000,445,-20,1.0,0.6,202,75.8,76.0,613,611,0,0,445,53.5000,-3.2000,CRUISE
2022-01-13 07:00:00,FDM6522,G-ABCD,30000,400,-800,1.5,1.1,205,74.2,74.4,605,603,0,0,400,54.0000,-3.8000,DESCENT
2022-01-13 07:15:00,FDM6522,G-ABCD,20000,360,-1200,2.1,1.5,208,72.1,72.3,595,593,0,0,360,54.3000,-4.1000,DESCENT
2022-01-13 07:25:00,FDM6522,G-ABCD,12000,300,-1500,3.2,2.1,210,70.4,70.6,582,580,5,0,300,54.5000,-4.3000,DESCENT
2022-01-13 07:32:00,FDM6522,G-ABCD,6000,260,-1200,4.1,2.8,212,68.2,68.4,570,568,10,0,260,54.6500,-4.4500,APPROACH
2022-01-13 07:36:00,FDM6522,G-ABCD,3000,220,-900,5.2,3.1,213,65.1,65.3,555,553,20,0,220,54.7200,-4.5200,APPROACH
2022-01-13 07:38:00,FDM6522,G-ABCD,2000,185,-700,6.1,2.4,214,62.3,62.5,542,540,30,1,185,54.7500,-4.5600,APPROACH
2022-01-13 07:39:30,FDM6522,G-ABCD,1200,168,-600,6.8,1.8,214,60.1,60.3,532,530,35,1,168,54.7700,-4.5900,FINAL_APPROACH
2022-01-13 07:40:00,FDM6522,G-ABCD,800,158,-550,7.2,1.5,214,58.4,58.6,524,522,40,1,158,54.7800,-4.6100,FINAL_APPROACH
2022-01-13 07:40:30,FDM6522,G-ABCD,400,148,-500,7.8,1.2,215,56.2,56.4,515,513,40,1,148,54.7850,-4.6200,FINAL_APPROACH
2022-01-13 07:41:00,FDM6522,G-ABCD,100,138,-400,8.1,0.8,215,52.1,52.3,502,500,40,1,138,54.7900,-4.6280,LANDING_FLARE
2022-01-13 07:41:15,FDM6522,G-ABCD,50,132,-300,7.5,0.5,215,48.2,48.4,488,486,40,1,132,54.7910,-4.6295,LANDING_FLARE
2022-01-13 07:41:25,FDM6522,G-ABCD,0,128,0,2.1,0.2,215,38.1,38.3,462,460,40,1,128,54.7915,-4.6300,TOUCHDOWN
2022-01-13 07:41:35,FDM6522,G-ABCD,0,100,0,1.2,0.1,215,28.4,28.6,442,440,40,1,100,54.7915,-0.4300,LANDING_ROLL
2022-01-13 07:41:50,FDM6522,G-ABCD,0,60,0,0.8,0.1,215,22.1,22.3,420,418,40,1,60,54.7915,-4.6300,LANDING_ROLL
2022-01-13 07:42:00,FDM6522,G-ABCD,0,30,0,0.5,0.1,215,20.1,20.3,415,413,30,1,30,54.7915,-4.6300,LANDING_ROLL
2022-01-13 07:42:15,FDM6522,G-ABCD,0,10,0,0.3,0.0,215,18.2,18.4,411,409,0,1,10,54.7916,-4.6301,TAXI
2022-01-13 07:42:30,FDM6522,G-ABCD,0,5,0,0.2,0.0,215,15.1,15.3,408,406,0,1,5,54.7916,-4.6301,TAXI
2022-01-13 07:43:00,FDM6522,G-ABCD,0,0,0,0.1,0.0,215,12.0,12.2,405,403,0,1,0,54.7916,-4.6302,POST_FLIGHT
